{
  "type": "FeatureCollection",
  "features": [
    {
      "type": "Feature",
      "properties": {
        "id": 2726964537,
        "name": "犀浦",
        "type": "subway_station",
        "weight": 10
      },
      "geometry": {
        "type": "Point",
        "coordinates": [
          103.9686662,
          30.7612369
        ]
      }
    },
    {
      "type": "Feature",
      "properties": {
        "id": 2981320496,
        "name": "百草路",
        "type": "subway_station",
        "weight": 4
      },
      "geometry": {
        "type": "Point",
        "coordinates": [
          103.9771766,
          30.7355916
        ]
      }
    },
    {
      "type": "Feature",
      "properties": {
        "id": 2981320498,
        "name": "金周路",
        "type": "subway_station",
        "weight": 4
      },
      "geometry": {
        "type": "Point",
        "coordinates": [
          103.9937837,
          30.7241362
        ]
      }
    },
    {
      "type": "Feature",
      "properties": {
        "id": 3316038284,
        "name": "大面铺",
        "type": "subway_station",
        "weight": 4
      },
      "geometry": {
        "type": "Point",
        "coordinates": [
          104.1989423,
          30.594997
        ]
      }
    },
    {
      "type": "Feature",
      "properties": {
        "id": 3316038285,
        "name": "界牌",
        "type": "subway_station",
        "weight": 4
      },
      "geometry": {
        "type": "Point",
        "coordinates": [
          104.2228454,
          30.5853645
        ]
      }
    },
    {
      "type": "Feature",
      "properties": {
        "id": 3316038311,
        "name": "连山坡",
        "type": "subway_station",
        "weight": 4
      },
      "geometry": {
        "type": "Point",
        "coordinates": [
          104.2104766,
          30.5901384
        ]
      }
    },
    {
      "type": "Feature",
      "properties": {
        "id": 3316038313,
        "name": "龙泉驿",
        "type": "subway_station",
        "weight": 4
      },
      "geometry": {
        "type": "Point",
        "coordinates": [
          104.2659429,
          30.5629008
        ]
      }
    },
    {
      "type": "Feature",
      "properties": {
        "id": 4064178132,
        "name": "成都西站",
        "type": "subway_station",
        "weight": 2
      },
      "geometry": {
        "type": "Point",
        "coordinates": [
          103.9732887,
          30.686382
        ]
      }
    },
    {
      "type": "Feature",
      "properties": {
        "id": 4079186997,
        "name": "崔家店",
        "type": "subway_station",
        "weight": 4
      },
      "geometry": {
        "type": "Point",
        "coordinates": [
          104.1338345,
          30.6677491
        ]
      }
    },
    {
      "type": "Feature",
      "properties": {
        "id": 4079187090,
        "name": "三瓦窑",
        "type": "subway_station",
        "weight": 4
      },
      "geometry": {
        "type": "Point",
        "coordinates": [
          104.0750502,
          30.6066043
        ]
      }
    },
    {
      "type": "Feature",
      "properties": {
        "id": 4079187129,
        "name": "武侯大道",
        "type": "subway_station",
        "weight": 4
      },
      "geometry": {
        "type": "Point",
        "coordinates": [
          104.0103594,
          30.6399039
        ]
      }
    },
    {
      "type": "Feature",
      "properties": {
        "id": 4079187136,
        "name": "龙爪堰",
        "type": "subway_station",
        "weight": 4
      },
      "geometry": {
        "type": "Point",
        "coordinates": [
          104.0060088,
          30.6544668
        ]
      }
    },
    {
      "type": "Feature",
      "properties": {
        "id": 4079187142,
        "name": "东坡路",
        "type": "subway_station",
        "weight": 2
      },
      "geometry": {
        "type": "Point",
        "coordinates": [
          104.0059252,
          30.6633826
        ]
      }
    },
    {
      "type": "Feature",
      "properties": {
        "id": 4079221269,
        "name": "红牌楼",
        "type": "subway_station",
        "weight": 4
      },
      "geometry": {
        "type": "Point",
        "coordinates": [
          104.0277688,
          30.6375454
        ]
      }
    },
    {
      "type": "Feature",
      "properties": {
        "id": 4079221394,
        "name": "衣冠庙",
        "type": "subway_station",
        "weight": 4
      },
      "geometry": {
        "type": "Point",
        "coordinates": [
          104.0495884,
          30.6369087
        ]
      }
    },
    {
      "type": "Feature",
      "properties": {
        "id": 4079221402,
        "name": "磨子桥",
        "type": "subway_station",
        "weight": 4
      },
      "geometry": {
        "type": "Point",
        "coordinates": [
          104.0734434,
          30.6399622
        ]
      }
    },
    {
      "type": "Feature",
      "properties": {
        "id": 4079221412,
        "name": "新南门",
        "type": "subway_station",
        "weight": 2
      },
      "geometry": {
        "type": "Point",
        "coordinates": [
          104.0725706,
          30.6465969
        ]
      }
    },
    {
      "type": "Feature",
      "properties": {
        "id": 5081771532,
        "name": "双流机场1航站楼",
        "type": "subway_station",
        "weight": 4
      },
      "geometry": {
        "type": "Point",
        "coordinates": [
          103.9573418,
          30.5813458
        ]
      }
    },
    {
      "type": "Feature",
      "properties": {
        "id": 5081771535,
        "name": "双流机场2航站楼",
        "type": "subway_station",
        "weight": 4
      },
      "geometry": {
        "type": "Point",
        "coordinates": [
          103.9540935,
          30.5722698
        ]
      }
    },
    {
      "type": "Feature",
      "properties": {
        "id": 5451167240,
        "name": "宽窄巷子",
        "type": "subway_station",
        "weight": 4
      },
      "geometry": {
        "type": "Point",
        "coordinates": [
          104.0479169,
          30.6677721
        ]
      }
    },
    {
      "type": "Feature",
      "properties": {
        "id": 5616916004,
        "name": "文化宫",
        "type": "subway_station",
        "weight": 4
      },
      "geometry": {
        "type": "Point",
        "coordinates": [
          104.0072494,
          30.674665
        ]
      }
    },
    {
      "type": "Feature",
      "properties": {
        "id": 5616916006,
        "name": "太平园",
        "type": "subway_station",
        "weight": 10
      },
      "geometry": {
        "type": "Point",
        "coordinates": [
          104.0190851,
          30.6279668
        ]
      }
    },
    {
      "type": "Feature",
      "properties": {
        "id": 5616916019,
        "name": "成都东客站",
        "type": "subway_station",
        "weight": 2
      },
      "geometry": {
        "type": "Point",
        "coordinates": [
          104.1371745,
          30.6317593
        ]
      }
    },
    {
      "type": "Feature",
      "properties": {
        "id": 5616916020,
        "name": "驷马桥",
        "type": "subway_station",
        "weight": 4
      },
      "geometry": {
        "type": "Point",
        "coordinates": [
          104.0908517,
          30.6979082
        ]
      }
    },
    {
      "type": "Feature",
      "properties": {
        "id": 5617074686,
        "name": "春熙路",
        "type": "subway_station",
        "weight": 10
      },
      "geometry": {
        "type": "Point",
        "coordinates": [
          104.0769039,
          30.6560366
        ]
      }
    },
    {
      "type": "Feature",
      "properties": {
        "id": 5617675904,
        "name": "一品天下",
        "type": "subway_station",
        "weight": 10
      },
      "geometry": {
        "type": "Point",
        "coordinates": [
          104.0180359,
          30.6911776
        ]
      }
    },
    {
      "type": "Feature",
      "properties": {
        "id": 5617807167,
        "name": "中医大·省医院",
        "type": "subway_station",
        "weight": 8
      },
      "geometry": {
        "type": "Point",
        "coordinates": [
          104.0382106,
          30.6686006
        ]
      }
    },
    {
      "type": "Feature",
      "properties": {
        "id": 5619295508,
        "name": "桐梓林",
        "type": "subway_station",
        "weight": 4
      },
      "geometry": {
        "type": "Point",
        "coordinates": [
          104.0646616,
          30.6177436
        ]
      }
    },
    {
      "type": "Feature",
      "properties": {
        "id": 5621991563,
        "name": "槐树店",
        "type": "subway_station",
        "weight": 4
      },
      "geometry": {
        "type": "Point",
        "coordinates": [
          104.1370649,
          30.6513365
        ]
      }
    },
    {
      "type": "Feature",
      "properties": {
        "id": 5626291561,
        "name": "天河路",
        "type": "subway_station",
        "weight": 4
      },
      "geometry": {
        "type": "Point",
        "coordinates": [
          103.9739973,
          30.7484271
        ]
      }
    },
    {
      "type": "Feature",
      "properties": {
        "id": 6156493772,
        "name": "武侯立交",
        "type": "subway_station",
        "weight": 4
      },
      "geometry": {
        "type": "Point",
        "coordinates": [
          103.9913487,
          30.6293974
        ]
      }
    },
    {
      "type": "Feature",
      "properties": {
        "id": 6156493778,
        "name": "双凤桥",
        "type": "subway_station",
        "weight": 4
      },
      "geometry": {
        "type": "Point",
        "coordinates": [
          103.9675949,
          30.6186158
        ]
      }
    },
    {
      "type": "Feature",
      "properties": {
        "id": 6156494013,
        "name": "航都大街",
        "type": "subway_station",
        "weight": 4
      },
      "geometry": {
        "type": "Point",
        "coordinates": [
          103.9349063,
          30.5938375
        ]
      }
    },
    {
      "type": "Feature",
      "properties": {
        "id": 6156494023,
        "name": "迎春桥",
        "type": "subway_station",
        "weight": 4
      },
      "geometry": {
        "type": "Point",
        "coordinates": [
          103.9318981,
          30.5823846
        ]
      }
    },
    {
      "type": "Feature",
      "properties": {
        "id": 6156494045,
        "name": "东升",
        "type": "subway_station",
        "weight": 2
      },
      "geometry": {
        "type": "Point",
        "coordinates": [
          103.9233341,
          30.5740226
        ]
      }
    },
    {
      "type": "Feature",
      "properties": {
        "id": 6156494052,
        "name": "双流广场",
        "type": "subway_station",
        "weight": 8
      },
      "geometry": {
        "type": "Point",
        "coordinates": [
          103.9185916,
          30.5676774
        ]
      }
    },
    {
      "type": "Feature",
      "properties": {
        "id": 6157881407,
        "name": "川藏立交",
        "type": "subway_station",
        "weight": 4
      },
      "geometry": {
        "type": "Point",
        "coordinates": [
          104.0042002,
          30.6258034
        ]
      }
    },
    {
      "type": "Feature",
      "properties": {
        "id": 6157881410,
        "name": "龙桥路",
        "type": "subway_station",
        "weight": 4
      },
      "geometry": {
        "type": "Point",
        "coordinates": [
          103.9416936,
          30.6066383
        ]
      }
    },
    {
      "type": "Feature",
      "properties": {
        "id": 6157881412,
        "name": "三里坝",
        "type": "subway_station",
        "weight": 4
      },
      "geometry": {
        "type": "Point",
        "coordinates": [
          103.9126461,
          30.5564946
        ]
      }
    },
    {
      "type": "Feature",
      "properties": {
        "id": 6278202088,
        "name": "市二医院",
        "type": "subway_station",
        "weight": 8
      },
      "geometry": {
        "type": "Point",
        "coordinates": [
          104.0814664,
          30.663124
        ]
      }
    },
    {
      "type": "Feature",
      "properties": {
        "id": 6502256091,
        "name": "华兴",
        "type": "subway_station",
        "weight": 4
      },
      "geometry": {
        "type": "Point",
        "coordinates": [
          103.9990075,
          30.6012269
        ]
      }
    },
    {
      "type": "Feature",
      "properties": {
        "id": 6502256113,
        "name": "武青南路",
        "type": "subway_station",
        "weight": 2
      },
      "geometry": {
        "type": "Point",
        "coordinates": [
          103.9828028,
          30.625724
        ]
      }
    },
    {
      "type": "Feature",
      "properties": {
        "id": 6502286199,
        "name": "西北桥",
        "type": "subway_station",
        "weight": 2
      },
      "geometry": {
        "type": "Point",
        "coordinates": [
          104.0556233,
          30.6881326
        ]
      }
    },
    {
      "type": "Feature",
      "properties": {
        "id": 6514796947,
        "name": "西南财大",
        "type": "subway_station",
        "weight": 2
      },
      "geometry": {
        "type": "Point",
        "coordinates": [
          104.0180145,
          30.6728811
        ]
      }
    },
    {
      "type": "Feature",
      "properties": {
        "id": 6514796948,
        "name": "草堂北路",
        "type": "subway_station",
        "weight": 2
      },
      "geometry": {
        "type": "Point",
        "coordinates": [
          104.0259724,
          30.671548
        ]
      }
    },
    {
      "type": "Feature",
      "properties": {
        "id": 6533307893,
        "name": "前锋路",
        "type": "subway_station",
        "weight": 4
      },
      "geometry": {
        "type": "Point",
        "coordinates": [
          104.0892935,
          30.6806739
        ]
      }
    },
    {
      "type": "Feature",
      "properties": {
        "id": 6533307894,
        "name": "红星桥",
        "type": "subway_station",
        "weight": 4
      },
      "geometry": {
        "type": "Point",
        "coordinates": [
          104.0879756,
          30.6736165
        ]
      }
    },
    {
      "type": "Feature",
      "properties": {
        "id": 6544756475,
        "name": "兴隆湖",
        "type": "subway_station",
        "weight": 4
      },
      "geometry": {
        "type": "Point",
        "coordinates": [
          104.0737434,
          30.4076612
        ]
      }
    },
    {
      "type": "Feature",
      "properties": {
        "id": 6594652054,
        "name": "高朋大道",
        "type": "subway_station",
        "weight": 4
      },
      "geometry": {
        "type": "Point",
        "coordinates": [
          104.0319174,
          30.6187056
        ]
      }
    },
    {
      "type": "Feature",
      "properties": {
        "id": 6594652091,
        "name": "东大路",
        "type": "subway_station",
        "weight": 2
      },
      "geometry": {
        "type": "Point",
        "coordinates": [
          104.1096421,
          30.6360419
        ]
      }
    },
    {
      "type": "Feature",
      "properties": {
        "id": 7089243999,
        "name": "九道堰",
        "type": "subway_station",
        "weight": 4
      },
      "geometry": {
        "type": "Point",
        "coordinates": [
          104.0801743,
          30.7738765
        ]
      }
    },
    {
      "type": "Feature",
      "properties": {
        "id": 7089244000,
        "name": "杜家碾",
        "type": "subway_station",
        "weight": 4
      },
      "geometry": {
        "type": "Point",
        "coordinates": [
          104.0723633,
          30.7739514
        ]
      }
    },
    {
      "type": "Feature",
      "properties": {
        "id": 7089244002,
        "name": "大丰",
        "type": "subway_station",
        "weight": 4
      },
      "geometry": {
        "type": "Point",
        "coordinates": [
          104.0632186,
          30.773979
        ]
      }
    },
    {
      "type": "Feature",
      "properties": {
        "id": 7089244003,
        "name": "石犀公园",
        "type": "subway_station",
        "weight": 4
      },
      "geometry": {
        "type": "Point",
        "coordinates": [
          104.0573092,
          30.7622262
        ]
      }
    },
    {
      "type": "Feature",
      "properties": {
        "id": 7089244004,
        "name": "皇花园",
        "type": "subway_station",
        "weight": 4
      },
      "geometry": {
        "type": "Point",
        "coordinates": [
          104.057268,
          30.7548258
        ]
      }
    },
    {
      "type": "Feature",
      "properties": {
        "id": 7089244005,
        "name": "陆家桥",
        "type": "subway_station",
        "weight": 4
      },
      "geometry": {
        "type": "Point",
        "coordinates": [
          104.0566396,
          30.7449384
        ]
      }
    },
    {
      "type": "Feature",
      "properties": {
        "id": 7089244006,
        "name": "泉水路",
        "type": "subway_station",
        "weight": 4
      },
      "geometry": {
        "type": "Point",
        "coordinates": [
          104.055915,
          30.7325343
        ]
      }
    },
    {
      "type": "Feature",
      "properties": {
        "id": 7089244007,
        "name": "洞子口",
        "type": "subway_station",
        "weight": 4
      },
      "geometry": {
        "type": "Point",
        "coordinates": [
          104.0559797,
          30.7238618
        ]
      }
    },
    {
      "type": "Feature",
      "properties": {
        "id": 7089244008,
        "name": "福宁路",
        "type": "subway_station",
        "weight": 4
      },
      "geometry": {
        "type": "Point",
        "coordinates": [
          104.0573144,
          30.7169056
        ]
      }
    },
    {
      "type": "Feature",
      "properties": {
        "id": 7089244009,
        "name": "五块石",
        "type": "subway_station",
        "weight": 4
      },
      "geometry": {
        "type": "Point",
        "coordinates": [
          104.0625173,
          30.7092274
        ]
      }
    },
    {
      "type": "Feature",
      "properties": {
        "id": 7089244010,
        "name": "赛云台",
        "type": "subway_station",
        "weight": 4
      },
      "geometry": {
        "type": "Point",
        "coordinates": [
          104.0640483,
          30.7033297
        ]
      }
    },
    {
      "type": "Feature",
      "properties": {
        "id": 7089244011,
        "name": "北站西二路",
        "type": "subway_station",
        "weight": 2
      },
      "geometry": {
        "type": "Point",
        "coordinates": [
          104.0638572,
          30.6970402
        ]
      }
    },
    {
      "type": "Feature",
      "properties": {
        "id": 7089244012,
        "name": "花牌坊",
        "type": "subway_station",
        "weight": 4
      },
      "geometry": {
        "type": "Point",
        "coordinates": [
          104.0462547,
          30.6860495
        ]
      }
    },
    {
      "type": "Feature",
      "properties": {
        "id": 7089244015,
        "name": "抚琴",
        "type": "subway_station",
        "weight": 4
      },
      "geometry": {
        "type": "Point",
        "coordinates": [
          104.0391829,
          30.6790839
        ]
      }
    },
    {
      "type": "Feature",
      "properties": {
        "id": 7089244016,
        "name": "青羊宫",
        "type": "subway_station",
        "weight": 4
      },
      "geometry": {
        "type": "Point",
        "coordinates": [
          104.0383697,
          30.6630672
        ]
      }
    },
    {
      "type": "Feature",
      "properties": {
        "id": 7089244017,
        "name": "省骨科医院",
        "type": "subway_station",
        "weight": 8
      },
      "geometry": {
        "type": "Point",
        "coordinates": [
          104.0386158,
          30.6542319
        ]
      }
    },
    {
      "type": "Feature",
      "properties": {
        "id": 7089244018,
        "name": "高升桥",
        "type": "subway_station",
        "weight": 4
      },
      "geometry": {
        "type": "Point",
        "coordinates": [
          104.039769,
          30.6419766
        ]
      }
    },
    {
      "type": "Feature",
      "properties": {
        "id": 7089244020,
        "name": "科园",
        "type": "subway_station",
        "weight": 4
      },
      "geometry": {
        "type": "Point",
        "coordinates": [
          104.0353001,
          30.63018
        ]
      }
    },
    {
      "type": "Feature",
      "properties": {
        "id": 7089244021,
        "name": "九兴大道",
        "type": "subway_station",
        "weight": 4
      },
      "geometry": {
        "type": "Point",
        "coordinates": [
          104.0354316,
          30.624386
        ]
      }
    },
    {
      "type": "Feature",
      "properties": {
        "id": 7089244022,
        "name": "神仙树",
        "type": "subway_station",
        "weight": 4
      },
      "geometry": {
        "type": "Point",
        "coordinates": [
          104.0456754,
          30.6118923
        ]
      }
    },
    {
      "type": "Feature",
      "properties": {
        "id": 7089244024,
        "name": "石羊立交",
        "type": "subway_station",
        "weight": 4
      },
      "geometry": {
        "type": "Point",
        "coordinates": [
          104.0483609,
          30.5979728
        ]
      }
    },
    {
      "type": "Feature",
      "properties": {
        "id": 7089244025,
        "name": "市一医院",
        "type": "subway_station",
        "weight": 8
      },
      "geometry": {
        "type": "Point",
        "coordinates": [
          104.0480025,
          30.5922294
        ]
      }
    },
    {
      "type": "Feature",
      "properties": {
        "id": 7089244026,
        "name": "交子大道",
        "type": "subway_station",
        "weight": 4
      },
      "geometry": {
        "type": "Point",
        "coordinates": [
          104.0477168,
          30.5841855
        ]
      }
    },
    {
      "type": "Feature",
      "properties": {
        "id": 7089244028,
        "name": "锦城湖",
        "type": "subway_station",
        "weight": 4
      },
      "geometry": {
        "type": "Point",
        "coordinates": [
          104.0439781,
          30.566911
        ]
      }
    },
    {
      "type": "Feature",
      "properties": {
        "id": 7089244030,
        "name": "大源",
        "type": "subway_station",
        "weight": 4
      },
      "geometry": {
        "type": "Point",
        "coordinates": [
          104.0441655,
          30.5518852
        ]
      }
    },
    {
      "type": "Feature",
      "properties": {
        "id": 7089244031,
        "name": "民乐",
        "type": "subway_station",
        "weight": 4
      },
      "geometry": {
        "type": "Point",
        "coordinates": [
          104.0443811,
          30.5428744
        ]
      }
    },
    {
      "type": "Feature",
      "properties": {
        "id": 7089244032,
        "name": "骑龙",
        "type": "subway_station",
        "weight": 4
      },
      "geometry": {
        "type": "Point",
        "coordinates": [
          104.0417583,
          30.5269454
        ]
      }
    },
    {
      "type": "Feature",
      "properties": {
        "id": 7089244033,
        "name": "警官学院",
        "type": "subway_station",
        "weight": 4
      },
      "geometry": {
        "type": "Point",
        "coordinates": [
          104.0378676,
          30.5158529
        ]
      }
    },
    {
      "type": "Feature",
      "properties": {
        "id": 7089244034,
        "name": "二江寺",
        "type": "subway_station",
        "weight": 4
      },
      "geometry": {
        "type": "Point",
        "coordinates": [
          104.0333132,
          30.5022424
        ]
      }
    },
    {
      "type": "Feature",
      "properties": {
        "id": 7089244035,
        "name": "南湖立交",
        "type": "subway_station",
        "weight": 2
      },
      "geometry": {
        "type": "Point",
        "coordinates": [
          104.0307541,
          30.4911674
        ]
      }
    },
    {
      "type": "Feature",
      "properties": {
        "id": 7089244036,
        "name": "怡心湖",
        "type": "subway_station",
        "weight": 4
      },
      "geometry": {
        "type": "Point",
        "coordinates": [
          104.024428,
          30.4732299
        ]
      }
    },
    {
      "type": "Feature",
      "properties": {
        "id": 7089244037,
        "name": "龙马路",
        "type": "subway_station",
        "weight": 4
      },
      "geometry": {
        "type": "Point",
        "coordinates": [
          104.017236,
          30.4601414
        ]
      }
    },
    {
      "type": "Feature",
      "properties": {
        "id": 7089244038,
        "name": "回龙",
        "type": "subway_station",
        "weight": 4
      },
      "geometry": {
        "type": "Point",
        "coordinates": [
          104.0097479,
          30.4471689
        ]
      }
    },
    {
      "type": "Feature",
      "properties": {
        "id": 7090395866,
        "name": "黄水",
        "type": "subway_station",
        "weight": 4
      },
      "geometry": {
        "type": "Point",
        "coordinates": [
          103.889244,
          30.5218956
        ]
      }
    },
    {
      "type": "Feature",
      "properties": {
        "id": 7090395870,
        "name": "花源",
        "type": "subway_station",
        "weight": 4
      },
      "geometry": {
        "type": "Point",
        "coordinates": [
          103.8787892,
          30.4881396
        ]
      }
    },
    {
      "type": "Feature",
      "properties": {
        "id": 7090395871,
        "name": "新津站",
        "type": "subway_station",
        "weight": 4
      },
      "geometry": {
        "type": "Point",
        "coordinates": [
          103.8712139,
          30.4658244
        ]
      }
    },
    {
      "type": "Feature",
      "properties": {
        "id": 7090395873,
        "name": "五津",
        "type": "subway_station",
        "weight": 4
      },
      "geometry": {
        "type": "Point",
        "coordinates": [
          103.8108456,
          30.4260799
        ]
      }
    },
    {
      "type": "Feature",
      "properties": {
        "id": 7090395874,
        "name": "儒林路",
        "type": "subway_station",
        "weight": 4
      },
      "geometry": {
        "type": "Point",
        "coordinates": [
          103.8011814,
          30.4191446
        ]
      }
    },
    {
      "type": "Feature",
      "properties": {
        "id": 7090395875,
        "name": "刘家碾",
        "type": "subway_station",
        "weight": 4
      },
      "geometry": {
        "type": "Point",
        "coordinates": [
          103.78919,
          30.4180006
        ]
      }
    },
    {
      "type": "Feature",
      "properties": {
        "id": 7090395876,
        "name": "新平",
        "type": "subway_station",
        "weight": 4
      },
      "geometry": {
        "type": "Point",
        "coordinates": [
          103.7793866,
          30.4111674
        ]
      }
    },
    {
      "type": "Feature",
      "properties": {
        "id": 7092856891,
        "name": "簇锦",
        "type": "subway_station",
        "weight": 4
      },
      "geometry": {
        "type": "Point",
        "coordinates": [
          104.0057894,
          30.613683
        ]
      }
    },
    {
      "type": "Feature",
      "properties": {
        "id": 7092856892,
        "name": "金花",
        "type": "subway_station",
        "weight": 4
      },
      "geometry": {
        "type": "Point",
        "coordinates": [
          103.9679019,
          30.5942244
        ]
      }
    },
    {
      "type": "Feature",
      "properties": {
        "id": 7213434053,
        "name": "火车北站",
        "type": "subway_station",
        "weight": 10
      },
      "geometry": {
        "type": "Point",
        "coordinates": [
          104.0714078,
          30.6980375
        ]
      }
    },
    {
      "type": "Feature",
      "properties": {
        "id": 7213434054,
        "name": "人民北路",
        "type": "subway_station",
        "weight": 2
      },
      "geometry": {
        "type": "Point",
        "coordinates": [
          104.0707108,
          30.6882719
        ]
      }
    },
    {
      "type": "Feature",
      "properties": {
        "id": 7213434055,
        "name": "骡马市",
        "type": "subway_station",
        "weight": 4
      },
      "geometry": {
        "type": "Point",
        "coordinates": [
          104.0630511,
          30.6694553
        ]
      }
    },
    {
      "type": "Feature",
      "properties": {
        "id": 7213434056,
        "name": "省体育馆",
        "type": "subway_station",
        "weight": 4
      },
      "geometry": {
        "type": "Point",
        "coordinates": [
          104.0639694,
          30.6355715
        ]
      }
    },
    {
      "type": "Feature",
      "properties": {
        "id": 7213434057,
        "name": "火车南站",
        "type": "subway_station",
        "weight": 10
      },
      "geometry": {
        "type": "Point",
        "coordinates": [
          104.0641514,
          30.6077036
        ]
      }
    },
    {
      "type": "Feature",
      "properties": {
        "id": 7257339586,
        "name": "倪家桥",
        "type": "subway_station",
        "weight": 4
      },
      "geometry": {
        "type": "Point",
        "coordinates": [
          104.0643243,
          30.6273321
        ]
      }
    },
    {
      "type": "Feature",
      "properties": {
        "id": 7417454927,
        "name": "天府广场",
        "type": "subway_station",
        "weight": 10
      },
      "geometry": {
        "type": "Point",
        "coordinates": [
          104.0638546,
          30.6599157
        ]
      }
    },
    {
      "type": "Feature",
      "properties": {
        "id": 7619640116,
        "name": "文殊院",
        "type": "subway_station",
        "weight": 4
      },
      "geometry": {
        "type": "Point",
        "coordinates": [
          104.0651388,
          30.6745013
        ]
      }
    },
    {
      "type": "Feature",
      "properties": {
        "id": 7622913629,
        "name": "锦江宾馆",
        "type": "subway_station",
        "weight": 4
      },
      "geometry": {
        "type": "Point",
        "coordinates": [
          104.063646,
          30.6519518
        ]
      }
    },
    {
      "type": "Feature",
      "properties": {
        "id": 7622913645,
        "name": "华西坝",
        "type": "subway_station",
        "weight": 2
      },
      "geometry": {
        "type": "Point",
        "coordinates": [
          104.0637578,
          30.6453565
        ]
      }
    },
    {
      "type": "Feature",
      "properties": {
        "id": 7625847649,
        "name": "韦家碾",
        "type": "subway_station",
        "weight": 4
      },
      "geometry": {
        "type": "Point",
        "coordinates": [
          104.0844208,
          30.7201788
        ]
      }
    },
    {
      "type": "Feature",
      "properties": {
        "id": 7947192948,
        "name": "孵化园",
        "type": "subway_station",
        "weight": 4
      },
      "geometry": {
        "type": "Point",
        "coordinates": [
          104.0637315,
          30.5778968
        ]
      }
    },
    {
      "type": "Feature",
      "properties": {
        "id": 7947192950,
        "name": "锦城广场",
        "type": "subway_station",
        "weight": 8
      },
      "geometry": {
        "type": "Point",
        "coordinates": [
          104.063393,
          30.5714455
        ]
      }
    },
    {
      "type": "Feature",
      "properties": {
        "id": 7947192951,
        "name": "锦城广场东",
        "type": "subway_station",
        "weight": 8
      },
      "geometry": {
        "type": "Point",
        "coordinates": [
          104.0667242,
          30.5712237
        ]
      }
    },
    {
      "type": "Feature",
      "properties": {
        "id": 7947192953,
        "name": "世纪城",
        "type": "subway_station",
        "weight": 10
      },
      "geometry": {
        "type": "Point",
        "coordinates": [
          104.0664501,
          30.5573119
        ]
      }
    },
    {
      "type": "Feature",
      "properties": {
        "id": 7947192955,
        "name": "海昌路",
        "type": "subway_station",
        "weight": 4
      },
      "geometry": {
        "type": "Point",
        "coordinates": [
          104.0677904,
          30.4948002
        ]
      }
    },
    {
      "type": "Feature",
      "properties": {
        "id": 7947192957,
        "name": "西博城",
        "type": "subway_station",
        "weight": 2
      },
      "geometry": {
        "type": "Point",
        "coordinates": [
          104.0731556,
          30.427247
        ]
      }
    },
    {
      "type": "Feature",
      "properties": {
        "id": 7947192959,
        "name": "兴隆",
        "type": "subway_station",
        "weight": 4
      },
      "geometry": {
        "type": "Point",
        "coordinates": [
          104.1001247,
          30.4121096
        ]
      }
    },
    {
      "type": "Feature",
      "properties": {
        "id": 8061878365,
        "name": "金沙博物馆",
        "type": "subway_station",
        "weight": 4
      },
      "geometry": {
        "type": "Point",
        "coordinates": [
          104.0101765,
          30.6800433
        ]
      }
    },
    {
      "type": "Feature",
      "properties": {
        "id": 8061881485,
        "name": "金科北路",
        "type": "subway_station",
        "weight": 2
      },
      "geometry": {
        "type": "Point",
        "coordinates": [
          104.0042638,
          30.7232736
        ]
      }
    },
    {
      "type": "Feature",
      "properties": {
        "id": 8061881494,
        "name": "迎宾大道",
        "type": "subway_station",
        "weight": 4
      },
      "geometry": {
        "type": "Point",
        "coordinates": [
          104.0110698,
          30.7159794
        ]
      }
    },
    {
      "type": "Feature",
      "properties": {
        "id": 8061881518,
        "name": "茶店子客运站",
        "type": "subway_station",
        "weight": 4
      },
      "geometry": {
        "type": "Point",
        "coordinates": [
          104.0097757,
          30.7077111
        ]
      }
    },
    {
      "type": "Feature",
      "properties": {
        "id": 8061881520,
        "name": "羊犀立交",
        "type": "subway_station",
        "weight": 4
      },
      "geometry": {
        "type": "Point",
        "coordinates": [
          104.0101063,
          30.6967456
        ]
      }
    },
    {
      "type": "Feature",
      "properties": {
        "id": 8064716355,
        "name": "成都大学",
        "type": "subway_station",
        "weight": 4
      },
      "geometry": {
        "type": "Point",
        "coordinates": [
          104.1785132,
          30.649049
        ]
      }
    },
    {
      "type": "Feature",
      "properties": {
        "id": 8064716370,
        "name": "十陵",
        "type": "subway_station",
        "weight": 4
      },
      "geometry": {
        "type": "Point",
        "coordinates": [
          104.1702724,
          30.6483203
        ]
      }
    },
    {
      "type": "Feature",
      "properties": {
        "id": 8064716371,
        "name": "来龙",
        "type": "subway_station",
        "weight": 4
      },
      "geometry": {
        "type": "Point",
        "coordinates": [
          104.162016,
          30.649248
        ]
      }
    },
    {
      "type": "Feature",
      "properties": {
        "id": 8064721016,
        "name": "万年场",
        "type": "subway_station",
        "weight": 4
      },
      "geometry": {
        "type": "Point",
        "coordinates": [
          104.1165427,
          30.6466349
        ]
      }
    },
    {
      "type": "Feature",
      "properties": {
        "id": 8064721018,
        "name": "双桥路",
        "type": "subway_station",
        "weight": 4
      },
      "geometry": {
        "type": "Point",
        "coordinates": [
          104.1116334,
          30.6489153
        ]
      }
    },
    {
      "type": "Feature",
      "properties": {
        "id": 8064721021,
        "name": "玉双路",
        "type": "subway_station",
        "weight": 4
      },
      "geometry": {
        "type": "Point",
        "coordinates": [
          104.0960205,
          30.6562188
        ]
      }
    },
    {
      "type": "Feature",
      "properties": {
        "id": 8064721048,
        "name": "太升南路",
        "type": "subway_station",
        "weight": 2
      },
      "geometry": {
        "type": "Point",
        "coordinates": [
          104.0739585,
          30.6672447
        ]
      }
    },
    {
      "type": "Feature",
      "properties": {
        "id": 8067489075,
        "name": "蜀汉路东",
        "type": "subway_station",
        "weight": 2
      },
      "geometry": {
        "type": "Point",
        "coordinates": [
          104.027148,
          30.685106
        ]
      }
    },
    {
      "type": "Feature",
      "properties": {
        "id": 8067489077,
        "name": "白果林",
        "type": "subway_station",
        "weight": 4
      },
      "geometry": {
        "type": "Point",
        "coordinates": [
          104.030958,
          30.6766138
        ]
      }
    },
    {
      "type": "Feature",
      "properties": {
        "id": 8067592157,
        "name": "通惠门",
        "type": "subway_station",
        "weight": 4
      },
      "geometry": {
        "type": "Point",
        "coordinates": [
          104.0458682,
          30.6647729
        ]
      }
    },
    {
      "type": "Feature",
      "properties": {
        "id": 8067592170,
        "name": "人民公园",
        "type": "subway_station",
        "weight": 4
      },
      "geometry": {
        "type": "Point",
        "coordinates": [
          104.0541497,
          30.6619125
        ]
      }
    },
    {
      "type": "Feature",
      "properties": {
        "id": 8242507060,
        "name": "青杠",
        "type": "subway_station",
        "weight": 4
      },
      "geometry": {
        "type": "Point",
        "coordinates": [
          104.0235948,
          30.727987
        ]
      }
    },
    {
      "type": "Feature",
      "properties": {
        "id": 8242507061,
        "name": "西华大道",
        "type": "subway_station",
        "weight": 2
      },
      "geometry": {
        "type": "Point",
        "coordinates": [
          104.0294363,
          30.7212116
        ]
      }
    },
    {
      "type": "Feature",
      "properties": {
        "id": 8242507062,
        "name": "金府",
        "type": "subway_station",
        "weight": 4
      },
      "geometry": {
        "type": "Point",
        "coordinates": [
          104.0345409,
          30.7142418
        ]
      }
    },
    {
      "type": "Feature",
      "properties": {
        "id": 8242507063,
        "name": "星河",
        "type": "subway_station",
        "weight": 4
      },
      "geometry": {
        "type": "Point",
        "coordinates": [
          104.0416977,
          30.7047139
        ]
      }
    },
    {
      "type": "Feature",
      "properties": {
        "id": 8242507064,
        "name": "西南交大",
        "type": "subway_station",
        "weight": 2
      },
      "geometry": {
        "type": "Point",
        "coordinates": [
          104.0473356,
          30.6968576
        ]
      }
    },
    {
      "type": "Feature",
      "properties": {
        "id": 8242507065,
        "name": "沙湾",
        "type": "subway_station",
        "weight": 4
      },
      "geometry": {
        "type": "Point",
        "coordinates": [
          104.0486518,
          30.6920145
        ]
      }
    },
    {
      "type": "Feature",
      "properties": {
        "id": 8242507068,
        "name": "梁家巷",
        "type": "subway_station",
        "weight": 4
      },
      "geometry": {
        "type": "Point",
        "coordinates": [
          104.0804885,
          30.684852
        ]
      }
    },
    {
      "type": "Feature",
      "properties": {
        "id": 8242507070,
        "name": "建设北路",
        "type": "subway_station",
        "weight": 2
      },
      "geometry": {
        "type": "Point",
        "coordinates": [
          104.0958328,
          30.6746928
        ]
      }
    },
    {
      "type": "Feature",
      "properties": {
        "id": 8242534445,
        "name": "望丛祠",
        "type": "subway_station",
        "weight": 4
      },
      "geometry": {
        "type": "Point",
        "coordinates": [
          103.8756531,
          30.8103288
        ]
      }
    },
    {
      "type": "Feature",
      "properties": {
        "id": 8242534446,
        "name": "和平街",
        "type": "subway_station",
        "weight": 4
      },
      "geometry": {
        "type": "Point",
        "coordinates": [
          103.8851138,
          30.8032022
        ]
      }
    },
    {
      "type": "Feature",
      "properties": {
        "id": 8242534447,
        "name": "郫筒",
        "type": "subway_station",
        "weight": 4
      },
      "geometry": {
        "type": "Point",
        "coordinates": [
          103.8924516,
          30.7987789
        ]
      }
    },
    {
      "type": "Feature",
      "properties": {
        "id": 8242534448,
        "name": "蜀新大道",
        "type": "subway_station",
        "weight": 4
      },
      "geometry": {
        "type": "Point",
        "coordinates": [
          103.9013811,
          30.7937563
        ]
      }
    },
    {
      "type": "Feature",
      "properties": {
        "id": 8242534449,
        "name": "檬梓",
        "type": "subway_station",
        "weight": 4
      },
      "geometry": {
        "type": "Point",
        "coordinates": [
          103.9122621,
          30.7874135
        ]
      }
    },
    {
      "type": "Feature",
      "properties": {
        "id": 8242534450,
        "name": "尚锦路",
        "type": "subway_station",
        "weight": 4
      },
      "geometry": {
        "type": "Point",
        "coordinates": [
          103.921787,
          30.7797724
        ]
      }
    },
    {
      "type": "Feature",
      "properties": {
        "id": 8242534451,
        "name": "红高路",
        "type": "subway_station",
        "weight": 4
      },
      "geometry": {
        "type": "Point",
        "coordinates": [
          103.9346755,
          30.7724128
        ]
      }
    },
    {
      "type": "Feature",
      "properties": {
        "id": 8242534452,
        "name": "天宇路",
        "type": "subway_station",
        "weight": 4
      },
      "geometry": {
        "type": "Point",
        "coordinates": [
          103.9512581,
          30.7573764
        ]
      }
    },
    {
      "type": "Feature",
      "properties": {
        "id": 8242534454,
        "name": "兴业北街",
        "type": "subway_station",
        "weight": 2
      },
      "geometry": {
        "type": "Point",
        "coordinates": [
          103.9811148,
          30.7612056
        ]
      }
    },
    {
      "type": "Feature",
      "properties": {
        "id": 8242534455,
        "name": "梓潼宫",
        "type": "subway_station",
        "weight": 4
      },
      "geometry": {
        "type": "Point",
        "coordinates": [
          103.9910493,
          30.7504851
        ]
      }
    },
    {
      "type": "Feature",
      "properties": {
        "id": 8242534456,
        "name": "侯家桥",
        "type": "subway_station",
        "weight": 4
      },
      "geometry": {
        "type": "Point",
        "coordinates": [
          104.0024597,
          30.7392621
        ]
      }
    },
    {
      "type": "Feature",
      "properties": {
        "id": 8242534457,
        "name": "兴盛",
        "type": "subway_station",
        "weight": 4
      },
      "geometry": {
        "type": "Point",
        "coordinates": [
          104.0192524,
          30.7333228
        ]
      }
    },
    {
      "type": "Feature",
      "properties": {
        "id": 8242639360,
        "name": "新鸿路",
        "type": "subway_station",
        "weight": 4
      },
      "geometry": {
        "type": "Point",
        "coordinates": [
          104.0995264,
          30.6654282
        ]
      }
    },
    {
      "type": "Feature",
      "properties": {
        "id": 8242639362,
        "name": "牛王庙",
        "type": "subway_station",
        "weight": 4
      },
      "geometry": {
        "type": "Point",
        "coordinates": [
          104.0909279,
          30.6480254
        ]
      }
    },
    {
      "type": "Feature",
      "properties": {
        "id": 8242639364,
        "name": "顺江路",
        "type": "subway_station",
        "weight": 4
      },
      "geometry": {
        "type": "Point",
        "coordinates": [
          104.0905891,
          30.6374848
        ]
      }
    },
    {
      "type": "Feature",
      "properties": {
        "id": 8242639365,
        "name": "三官堂",
        "type": "subway_station",
        "weight": 4
      },
      "geometry": {
        "type": "Point",
        "coordinates": [
          104.0920676,
          30.6308008
        ]
      }
    },
    {
      "type": "Feature",
      "properties": {
        "id": 8242639366,
        "name": "东光",
        "type": "subway_station",
        "weight": 2
      },
      "geometry": {
        "type": "Point",
        "coordinates": [
          104.095889,
          30.6220368
        ]
      }
    },
    {
      "type": "Feature",
      "properties": {
        "id": 8242639370,
        "name": "琉璃场",
        "type": "subway_station",
        "weight": 4
      },
      "geometry": {
        "type": "Point",
        "coordinates": [
          104.0964561,
          30.6101807
        ]
      }
    },
    {
      "type": "Feature",
      "properties": {
        "id": 8242639372,
        "name": "琉三路",
        "type": "subway_station",
        "weight": 4
      },
      "geometry": {
        "type": "Point",
        "coordinates": [
          104.0956096,
          30.603023
        ]
      }
    },
    {
      "type": "Feature",
      "properties": {
        "id": 8242639373,
        "name": "金石路",
        "type": "subway_station",
        "weight": 4
      },
      "geometry": {
        "type": "Point",
        "coordinates": [
          104.0866213,
          30.5926907
        ]
      }
    },
    {
      "type": "Feature",
      "properties": {
        "id": 8242639374,
        "name": "金融城东",
        "type": "subway_station",
        "weight": 2
      },
      "geometry": {
        "type": "Point",
        "coordinates": [
          104.0818708,
          30.5815986
        ]
      }
    },
    {
      "type": "Feature",
      "properties": {
        "id": 8242639376,
        "name": "中和",
        "type": "subway_station",
        "weight": 4
      },
      "geometry": {
        "type": "Point",
        "coordinates": [
          104.0939965,
          30.5604919
        ]
      }
    },
    {
      "type": "Feature",
      "properties": {
        "id": 8242639377,
        "name": "张家寺",
        "type": "subway_station",
        "weight": 4
      },
      "geometry": {
        "type": "Point",
        "coordinates": [
          104.095871,
          30.5520241
        ]
      }
    },
    {
      "type": "Feature",
      "properties": {
        "id": 8242765674,
        "name": "陆肖",
        "type": "subway_station",
        "weight": 4
      },
      "geometry": {
        "type": "Point",
        "coordinates": [
          104.0958306,
          30.5415536
        ]
      }
    },
    {
      "type": "Feature",
      "properties": {
        "id": 8242765675,
        "name": "观东",
        "type": "subway_station",
        "weight": 2
      },
      "geometry": {
        "type": "Point",
        "coordinates": [
          104.0959197,
          30.5333653
        ]
      }
    },
    {
      "type": "Feature",
      "properties": {
        "id": 8242765676,
        "name": "新通大道",
        "type": "subway_station",
        "weight": 4
      },
      "geometry": {
        "type": "Point",
        "coordinates": [
          104.0959541,
          30.5239906
        ]
      }
    },
    {
      "type": "Feature",
      "properties": {
        "id": 8242765677,
        "name": "新川路",
        "type": "subway_station",
        "weight": 4
      },
      "geometry": {
        "type": "Point",
        "coordinates": [
          104.0981742,
          30.5179015
        ]
      }
    },
    {
      "type": "Feature",
      "properties": {
        "id": 8242765678,
        "name": "龙灯山",
        "type": "subway_station",
        "weight": 4
      },
      "geometry": {
        "type": "Point",
        "coordinates": [
          104.098728,
          30.51144
        ]
      }
    },
    {
      "type": "Feature",
      "properties": {
        "id": 8242765679,
        "name": "蒲草塘",
        "type": "subway_station",
        "weight": 4
      },
      "geometry": {
        "type": "Point",
        "coordinates": [
          104.0959512,
          30.504208
        ]
      }
    },
    {
      "type": "Feature",
      "properties": {
        "id": 8242765682,
        "name": "万安",
        "type": "subway_station",
        "weight": 4
      },
      "geometry": {
        "type": "Point",
        "coordinates": [
          104.0968643,
          30.4975196
        ]
      }
    },
    {
      "type": "Feature",
      "properties": {
        "id": 8242765685,
        "name": "麓山大道",
        "type": "subway_station",
        "weight": 4
      },
      "geometry": {
        "type": "Point",
        "coordinates": [
          104.1007977,
          30.485505
        ]
      }
    },
    {
      "type": "Feature",
      "properties": {
        "id": 8242765686,
        "name": "沈阳路",
        "type": "subway_station",
        "weight": 4
      },
      "geometry": {
        "type": "Point",
        "coordinates": [
          104.0989793,
          30.4700294
        ]
      }
    },
    {
      "type": "Feature",
      "properties": {
        "id": 8242765691,
        "name": "昌公堰",
        "type": "subway_station",
        "weight": 4
      },
      "geometry": {
        "type": "Point",
        "coordinates": [
          104.0921259,
          30.4510432
        ]
      }
    },
    {
      "type": "Feature",
      "properties": {
        "id": 8242765692,
        "name": "杭州路",
        "type": "subway_station",
        "weight": 4
      },
      "geometry": {
        "type": "Point",
        "coordinates": [
          104.0869158,
          30.4415065
        ]
      }
    },
    {
      "type": "Feature",
      "properties": {
        "id": 8242765693,
        "name": "天府商务区",
        "type": "subway_station",
        "weight": 4
      },
      "geometry": {
        "type": "Point",
        "coordinates": [
          104.0839019,
          30.4325893
        ]
      }
    },
    {
      "type": "Feature",
      "properties": {
        "id": 8242765695,
        "name": "秦皇寺",
        "type": "subway_station",
        "weight": 4
      },
      "geometry": {
        "type": "Point",
        "coordinates": [
          104.0593266,
          30.42693
        ]
      }
    },
    {
      "type": "Feature",
      "properties": {
        "id": 8242765696,
        "name": "松林",
        "type": "subway_station",
        "weight": 4
      },
      "geometry": {
        "type": "Point",
        "coordinates": [
          104.0437342,
          30.4285483
        ]
      }
    },
    {
      "type": "Feature",
      "properties": {
        "id": 8242765697,
        "name": "钓鱼嘴",
        "type": "subway_station",
        "weight": 4
      },
      "geometry": {
        "type": "Point",
        "coordinates": [
          104.0301217,
          30.4389666
        ]
      }
    },
    {
      "type": "Feature",
      "properties": {
        "id": 8242765699,
        "name": "兰家沟",
        "type": "subway_station",
        "weight": 4
      },
      "geometry": {
        "type": "Point",
        "coordinates": [
          103.9943464,
          30.4458529
        ]
      }
    },
    {
      "type": "Feature",
      "properties": {
        "id": 8242891881,
        "name": "四河",
        "type": "subway_station",
        "weight": 4
      },
      "geometry": {
        "type": "Point",
        "coordinates": [
          104.0672517,
          30.5194683
        ]
      }
    },
    {
      "type": "Feature",
      "properties": {
        "id": 8242891882,
        "name": "五根松",
        "type": "subway_station",
        "weight": 4
      },
      "geometry": {
        "type": "Point",
        "coordinates": [
          104.0790961,
          30.5043226
        ]
      }
    },
    {
      "type": "Feature",
      "properties": {
        "id": 8242891883,
        "name": "广都",
        "type": "subway_station",
        "weight": 4
      },
      "geometry": {
        "type": "Point",
        "coordinates": [
          104.0733951,
          30.5130336
        ]
      }
    },
    {
      "type": "Feature",
      "properties": {
        "id": 8242891884,
        "name": "华府大道",
        "type": "subway_station",
        "weight": 4
      },
      "geometry": {
        "type": "Point",
        "coordinates": [
          104.0669688,
          30.5282891
        ]
      }
    },
    {
      "type": "Feature",
      "properties": {
        "id": 8242891885,
        "name": "天府五街",
        "type": "subway_station",
        "weight": 4
      },
      "geometry": {
        "type": "Point",
        "coordinates": [
          104.0666133,
          30.5396853
        ]
      }
    },
    {
      "type": "Feature",
      "properties": {
        "id": 8242891886,
        "name": "天府三街",
        "type": "subway_station",
        "weight": 4
      },
      "geometry": {
        "type": "Point",
        "coordinates": [
          104.0662931,
          30.5492144
        ]
      }
    },
    {
      "type": "Feature",
      "properties": {
        "id": 8242891887,
        "name": "金融城",
        "type": "subway_station",
        "weight": 4
      },
      "geometry": {
        "type": "Point",
        "coordinates": [
          104.0614928,
          30.5849419
        ]
      }
    },
    {
      "type": "Feature",
      "properties": {
        "id": 8242891888,
        "name": "高新",
        "type": "subway_station",
        "weight": 4
      },
      "geometry": {
        "type": "Point",
        "coordinates": [
          104.0614525,
          30.5966272
        ]
      }
    },
    {
      "type": "Feature",
      "properties": {
        "id": 8242891889,
        "name": "华阳",
        "type": "subway_station",
        "weight": 4
      },
      "geometry": {
        "type": "Point",
        "coordinates": [
          104.0676706,
          30.5058106
        ]
      }
    },
    {
      "type": "Feature",
      "properties": {
        "id": 8242891890,
        "name": "广福",
        "type": "subway_station",
        "weight": 4
      },
      "geometry": {
        "type": "Point",
        "coordinates": [
          104.0673344,
          30.4807989
        ]
      }
    },
    {
      "type": "Feature",
      "properties": {
        "id": 8242891891,
        "name": "红石公园",
        "type": "subway_station",
        "weight": 4
      },
      "geometry": {
        "type": "Point",
        "coordinates": [
          104.0704129,
          30.4667408
        ]
      }
    },
    {
      "type": "Feature",
      "properties": {
        "id": 8242891892,
        "name": "麓湖",
        "type": "subway_station",
        "weight": 4
      },
      "geometry": {
        "type": "Point",
        "coordinates": [
          104.0707118,
          30.4568328
        ]
      }
    },
    {
      "type": "Feature",
      "properties": {
        "id": 8242891893,
        "name": "武汉路",
        "type": "subway_station",
        "weight": 4
      },
      "geometry": {
        "type": "Point",
        "coordinates": [
          104.0710243,
          30.444821
        ]
      }
    },
    {
      "type": "Feature",
      "properties": {
        "id": 8242891894,
        "name": "天府公园",
        "type": "subway_station",
        "weight": 4
      },
      "geometry": {
        "type": "Point",
        "coordinates": [
          104.0751717,
          30.4355733
        ]
      }
    },
    {
      "type": "Feature",
      "properties": {
        "id": 8242891895,
        "name": "广州路",
        "type": "subway_station",
        "weight": 4
      },
      "geometry": {
        "type": "Point",
        "coordinates": [
          104.0744829,
          30.4210176
        ]
      }
    },
    {
      "type": "Feature",
      "properties": {
        "id": 8242891896,
        "name": "科学城",
        "type": "subway_station",
        "weight": 4
      },
      "geometry": {
        "type": "Point",
        "coordinates": [
          104.0702758,
          30.3939183
        ]
      }
    },
    {
      "type": "Feature",
      "properties": {
        "id": 8256421490,
        "name": "十里店",
        "type": "subway_station",
        "weight": 4
      },
      "geometry": {
        "type": "Point",
        "coordinates": [
          104.1414495,
          30.6815925
        ]
      }
    },
    {
      "type": "Feature",
      "properties": {
        "id": 8256421498,
        "name": "理工大学",
        "type": "subway_station",
        "weight": 4
      },
      "geometry": {
        "type": "Point",
        "coordinates": [
          104.1342577,
          30.6749233
        ]
      }
    },
    {
      "type": "Feature",
      "properties": {
        "id": 8256421499,
        "name": "东郊记忆",
        "type": "subway_station",
        "weight": 2
      },
      "geometry": {
        "type": "Point",
        "coordinates": [
          104.1263408,
          30.6708301
        ]
      }
    },
    {
      "type": "Feature",
      "properties": {
        "id": 8256421500,
        "name": "杉板桥",
        "type": "subway_station",
        "weight": 4
      },
      "geometry": {
        "type": "Point",
        "coordinates": [
          104.1168793,
          30.6666601
        ]
      }
    },
    {
      "type": "Feature",
      "properties": {
        "id": 8256421501,
        "name": "万年路",
        "type": "subway_station",
        "weight": 4
      },
      "geometry": {
        "type": "Point",
        "coordinates": [
          104.1124828,
          30.6573406
        ]
      }
    },
    {
      "type": "Feature",
      "properties": {
        "id": 8256421504,
        "name": "净居寺",
        "type": "subway_station",
        "weight": 4
      },
      "geometry": {
        "type": "Point",
        "coordinates": [
          104.1018408,
          30.6248708
        ]
      }
    },
    {
      "type": "Feature",
      "properties": {
        "id": 8256421505,
        "name": "东湖公园",
        "type": "subway_station",
        "weight": 2
      },
      "geometry": {
        "type": "Point",
        "coordinates": [
          104.0853376,
          30.6219996
        ]
      }
    },
    {
      "type": "Feature",
      "properties": {
        "id": 8256421506,
        "name": "川大望江校区",
        "type": "subway_station",
        "weight": 4
      },
      "geometry": {
        "type": "Point",
        "coordinates": [
          104.0730453,
          30.6275678
        ]
      }
    },
    {
      "type": "Feature",
      "properties": {
        "id": 8256421508,
        "name": "芳草街",
        "type": "subway_station",
        "weight": 4
      },
      "geometry": {
        "type": "Point",
        "coordinates": [
          104.0500268,
          30.6283117
        ]
      }
    },
    {
      "type": "Feature",
      "properties": {
        "id": 8256421509,
        "name": "永丰",
        "type": "subway_station",
        "weight": 4
      },
      "geometry": {
        "type": "Point",
        "coordinates": [
          104.0443113,
          30.6306762
        ]
      }
    },
    {
      "type": "Feature",
      "properties": {
        "id": 8256421512,
        "name": "殷家林",
        "type": "subway_station",
        "weight": 4
      },
      "geometry": {
        "type": "Point",
        "coordinates": [
          104.0318327,
          30.6087412
        ]
      }
    },
    {
      "type": "Feature",
      "properties": {
        "id": 8256421513,
        "name": "庆安",
        "type": "subway_station",
        "weight": 4
      },
      "geometry": {
        "type": "Point",
        "coordinates": [
          104.0316132,
          30.6008356
        ]
      }
    },
    {
      "type": "Feature",
      "properties": {
        "id": 8256421514,
        "name": "石羊",
        "type": "subway_station",
        "weight": 4
      },
      "geometry": {
        "type": "Point",
        "coordinates": [
          104.0281817,
          30.5871587
        ]
      }
    },
    {
      "type": "Feature",
      "properties": {
        "id": 8256421516,
        "name": "三元",
        "type": "subway_station",
        "weight": 4
      },
      "geometry": {
        "type": "Point",
        "coordinates": [
          104.024014,
          30.5836777
        ]
      }
    },
    {
      "type": "Feature",
      "properties": {
        "id": 8256422218,
        "name": "顺风",
        "type": "subway_station",
        "weight": 4
      },
      "geometry": {
        "type": "Point",
        "coordinates": [
          104.0088249,
          30.5794371
        ]
      }
    },
    {
      "type": "Feature",
      "properties": {
        "id": 8256422219,
        "name": "珠江路",
        "type": "subway_station",
        "weight": 4
      },
      "geometry": {
        "type": "Point",
        "coordinates": [
          104.0055145,
          30.5689954
        ]
      }
    },
    {
      "type": "Feature",
      "properties": {
        "id": 8256422220,
        "name": "川大江安校区",
        "type": "subway_station",
        "weight": 4
      },
      "geometry": {
        "type": "Point",
        "coordinates": [
          104.004721,
          30.5577998
        ]
      }
    },
    {
      "type": "Feature",
      "properties": {
        "id": 8256422221,
        "name": "文星",
        "type": "subway_station",
        "weight": 4
      },
      "geometry": {
        "type": "Point",
        "coordinates": [
          103.988352,
          30.5532424
        ]
      }
    },
    {
      "type": "Feature",
      "properties": {
        "id": 8256422222,
        "name": "莲花",
        "type": "subway_station",
        "weight": 4
      },
      "geometry": {
        "type": "Point",
        "coordinates": [
          103.9771124,
          30.5485757
        ]
      }
    },
    {
      "type": "Feature",
      "properties": {
        "id": 8260922901,
        "name": "黄田坝",
        "type": "subway_station",
        "weight": 4
      },
      "geometry": {
        "type": "Point",
        "coordinates": [
          103.9690373,
          30.7006755
        ]
      }
    },
    {
      "type": "Feature",
      "properties": {
        "id": 8260922903,
        "name": "培风",
        "type": "subway_station",
        "weight": 4
      },
      "geometry": {
        "type": "Point",
        "coordinates": [
          103.9749167,
          30.663189
        ]
      }
    },
    {
      "type": "Feature",
      "properties": {
        "id": 8260978344,
        "name": "机投桥",
        "type": "subway_station",
        "weight": 4
      },
      "geometry": {
        "type": "Point",
        "coordinates": [
          103.9758959,
          30.6475347
        ]
      }
    },
    {
      "type": "Feature",
      "properties": {
        "id": 8260978346,
        "name": "簇桥",
        "type": "subway_station",
        "weight": 4
      },
      "geometry": {
        "type": "Point",
        "coordinates": [
          103.988095,
          30.6097347
        ]
      }
    },
    {
      "type": "Feature",
      "properties": {
        "id": 8260978348,
        "name": "太平寺",
        "type": "subway_station",
        "weight": 4
      },
      "geometry": {
        "type": "Point",
        "coordinates": [
          104.0098745,
          30.5936804
        ]
      }
    },
    {
      "type": "Feature",
      "properties": {
        "id": 8260978349,
        "name": "锦城大道",
        "type": "subway_station",
        "weight": 4
      },
      "geometry": {
        "type": "Point",
        "coordinates": [
          104.0479304,
          30.5776822
        ]
      }
    },
    {
      "type": "Feature",
      "properties": {
        "id": 8260978351,
        "name": "心岛",
        "type": "subway_station",
        "weight": 4
      },
      "geometry": {
        "type": "Point",
        "coordinates": [
          104.0703225,
          30.5782388
        ]
      }
    },
    {
      "type": "Feature",
      "properties": {
        "id": 8261614646,
        "name": "市五医院",
        "type": "subway_station",
        "weight": 8
      },
      "geometry": {
        "type": "Point",
        "coordinates": [
          103.8269906,
          30.7019529
        ]
      }
    },
    {
      "type": "Feature",
      "properties": {
        "id": 8261614647,
        "name": "凤溪河",
        "type": "subway_station",
        "weight": 4
      },
      "geometry": {
        "type": "Point",
        "coordinates": [
          103.8419054,
          30.6893466
        ]
      }
    },
    {
      "type": "Feature",
      "properties": {
        "id": 8261614649,
        "name": "温泉大道",
        "type": "subway_station",
        "weight": 4
      },
      "geometry": {
        "type": "Point",
        "coordinates": [
          103.8534168,
          30.6751951
        ]
      }
    },
    {
      "type": "Feature",
      "properties": {
        "id": 8261614650,
        "name": "明光",
        "type": "subway_station",
        "weight": 4
      },
      "geometry": {
        "type": "Point",
        "coordinates": [
          103.8662776,
          30.6612522
        ]
      }
    },
    {
      "type": "Feature",
      "properties": {
        "id": 8261614651,
        "name": "九江北",
        "type": "subway_station",
        "weight": 2
      },
      "geometry": {
        "type": "Point",
        "coordinates": [
          103.9195084,
          30.6373006
        ]
      }
    },
    {
      "type": "Feature",
      "properties": {
        "id": 8261614652,
        "name": "白佛桥",
        "type": "subway_station",
        "weight": 4
      },
      "geometry": {
        "type": "Point",
        "coordinates": [
          103.9619095,
          30.6439854
        ]
      }
    },
    {
      "type": "Feature",
      "properties": {
        "id": 8547899003,
        "name": "天府机场北",
        "type": "subway_station",
        "weight": 2
      },
      "geometry": {
        "type": "Point",
        "coordinates": [
          104.452572,
          30.3369744
        ]
      }
    },
    {
      "type": "Feature",
      "properties": {
        "id": 8849562184,
        "name": "天府机场1号2号航站楼",
        "type": "subway_station",
        "weight": 4
      },
      "geometry": {
        "type": "Point",
        "coordinates": [
          104.4424203,
          30.3154099
        ]
      }
    },
    {
      "type": "Feature",
      "properties": {
        "id": 9025152913,
        "name": "天府站",
        "type": "subway_station",
        "weight": 4
      },
      "geometry": {
        "type": "Point",
        "coordinates": [
          104.1486092,
          30.3927933
        ]
      }
    },
    {
      "type": "Feature",
      "properties": {
        "id": 9153430046,
        "name": "青岛路",
        "type": "subway_station",
        "weight": 4
      },
      "geometry": {
        "type": "Point",
        "coordinates": [
          104.0998407,
          30.4615609
        ]
      }
    },
    {
      "type": "Feature",
      "properties": {
        "id": 9153430047,
        "name": "芦角",
        "type": "subway_station",
        "weight": 4
      },
      "geometry": {
        "type": "Point",
        "coordinates": [
          104.0353001,
          30.4340915
        ]
      }
    },
    {
      "type": "Feature",
      "properties": {
        "id": 9546933759,
        "name": "双流西站",
        "type": "subway_station",
        "weight": 2
      },
      "geometry": {
        "type": "Point",
        "coordinates": [
          103.9149062,
          30.5459204
        ]
      }
    },
    {
      "type": "Feature",
      "properties": {
        "id": 9717933674,
        "name": "华桂路",
        "type": "subway_station",
        "weight": 4
      },
      "geometry": {
        "type": "Point",
        "coordinates": [
          104.0958825,
          30.8275052
        ]
      }
    },
    {
      "type": "Feature",
      "properties": {
        "id": 9717998609,
        "name": "柏水场",
        "type": "subway_station",
        "weight": 4
      },
      "geometry": {
        "type": "Point",
        "coordinates": [
          104.0917584,
          30.8178081
        ]
      }
    },
    {
      "type": "Feature",
      "properties": {
        "id": 9717998610,
        "name": "廖家湾",
        "type": "subway_station",
        "weight": 4
      },
      "geometry": {
        "type": "Point",
        "coordinates": [
          104.088529,
          30.8107235
        ]
      }
    },
    {
      "type": "Feature",
      "properties": {
        "id": 9717998611,
        "name": "北部商贸城",
        "type": "subway_station",
        "weight": 2
      },
      "geometry": {
        "type": "Point",
        "coordinates": [
          104.0864436,
          30.7934445
        ]
      }
    },
    {
      "type": "Feature",
      "properties": {
        "id": 9717998612,
        "name": "幸福桥",
        "type": "subway_station",
        "weight": 4
      },
      "geometry": {
        "type": "Point",
        "coordinates": [
          104.0857623,
          30.7792827
        ]
      }
    },
    {
      "type": "Feature",
      "properties": {
        "id": 10106353072,
        "name": "三岔",
        "type": "subway_station",
        "weight": 4
      },
      "geometry": {
        "type": "Point",
        "coordinates": [
          104.3148098,
          30.3139132
        ]
      }
    },
    {
      "type": "Feature",
      "properties": {
        "id": 10203417942,
        "name": "东门大桥",
        "type": "subway_station",
        "weight": 2
      },
      "geometry": {
        "type": "Point",
        "coordinates": [
          104.0849333,
          30.6505473
        ]
      }
    },
    {
      "type": "Feature",
      "properties": {
        "id": 10203417943,
        "name": "牛市口",
        "type": "subway_station",
        "weight": 4
      },
      "geometry": {
        "type": "Point",
        "coordinates": [
          104.105206,
          30.6400907
        ]
      }
    },
    {
      "type": "Feature",
      "properties": {
        "id": 10203417944,
        "name": "塔子山公园",
        "type": "subway_station",
        "weight": 4
      },
      "geometry": {
        "type": "Point",
        "coordinates": [
          104.1202467,
          30.631874
        ]
      }
    },
    {
      "type": "Feature",
      "properties": {
        "id": 10203417945,
        "name": "成渝立交",
        "type": "subway_station",
        "weight": 4
      },
      "geometry": {
        "type": "Point",
        "coordinates": [
          104.1446566,
          30.6273636
        ]
      }
    },
    {
      "type": "Feature",
      "properties": {
        "id": 10203417946,
        "name": "惠王陵",
        "type": "subway_station",
        "weight": 4
      },
      "geometry": {
        "type": "Point",
        "coordinates": [
          104.1496534,
          30.6144336
        ]
      }
    },
    {
      "type": "Feature",
      "properties": {
        "id": 10203417947,
        "name": "洪河",
        "type": "subway_station",
        "weight": 4
      },
      "geometry": {
        "type": "Point",
        "coordinates": [
          104.1550085,
          30.6073715
        ]
      }
    },
    {
      "type": "Feature",
      "properties": {
        "id": 10203417986,
        "name": "书房",
        "type": "subway_station",
        "weight": 4
      },
      "geometry": {
        "type": "Point",
        "coordinates": [
          104.2397432,
          30.5781841
        ]
      }
    },
    {
      "type": "Feature",
      "properties": {
        "id": 10203418013,
        "name": "龙平路",
        "type": "subway_station",
        "weight": 4
      },
      "geometry": {
        "type": "Point",
        "coordinates": [
          104.25654,
          30.5755409
        ]
      }
    },
    {
      "type": "Feature",
      "properties": {
        "id": 10771129666,
        "name": "二仙桥",
        "type": "subway_station",
        "weight": 4
      },
      "geometry": {
        "type": "Point",
        "coordinates": [
          104.1233942,
          30.6833636
        ]
      }
    },
    {
      "type": "Feature",
      "properties": {
        "id": 10771424867,
        "name": "茶店子",
        "type": "subway_station",
        "weight": 4
      },
      "geometry": {
        "type": "Point",
        "coordinates": [
          104.0288976,
          30.6989318
        ]
      }
    },
    {
      "type": "Feature",
      "properties": {
        "id": 10771424868,
        "name": "花照壁",
        "type": "subway_station",
        "weight": 4
      },
      "geometry": {
        "type": "Point",
        "coordinates": [
          104.0383912,
          30.6990641
        ]
      }
    },
    {
      "type": "Feature",
      "properties": {
        "id": 10771424869,
        "name": "府青路",
        "type": "subway_station",
        "weight": 4
      },
      "geometry": {
        "type": "Point",
        "coordinates": [
          104.1042726,
          30.6966033
        ]
      }
    },
    {
      "type": "Feature",
      "properties": {
        "id": 10773561920,
        "name": "火车南站",
        "type": "subway_station",
        "weight": 10
      },
      "geometry": {
        "type": "Point",
        "coordinates": [
          104.065324,
          30.6054922
        ]
      }
    },
    {
      "type": "Feature",
      "properties": {
        "id": 10773561924,
        "name": "四川师大",
        "type": "subway_station",
        "weight": 4
      },
      "geometry": {
        "type": "Point",
        "coordinates": [
          104.1139202,
          30.6118915
        ]
      }
    },
    {
      "type": "Feature",
      "properties": {
        "id": 10773561927,
        "name": "大观",
        "type": "subway_station",
        "weight": 4
      },
      "geometry": {
        "type": "Point",
        "coordinates": [
          104.1301329,
          30.6239348
        ]
      }
    },
    {
      "type": "Feature",
      "properties": {
        "id": 10773561928,
        "name": "狮子山",
        "type": "subway_station",
        "weight": 4
      },
      "geometry": {
        "type": "Point",
        "coordinates": [
          104.1219659,
          30.6187133
        ]
      }
    },
    {
      "type": "Feature",
      "properties": {
        "id": 10773561929,
        "name": "迎晖路",
        "type": "subway_station",
        "weight": 4
      },
      "geometry": {
        "type": "Point",
        "coordinates": [
          104.1367194,
          30.6404522
        ]
      }
    },
    {
      "type": "Feature",
      "properties": {
        "id": 10773561933,
        "name": "双店路",
        "type": "subway_station",
        "weight": 4
      },
      "geometry": {
        "type": "Point",
        "coordinates": [
          104.1340465,
          30.6599581
        ]
      }
    },
    {
      "type": "Feature",
      "properties": {
        "id": 10773561941,
        "name": "八里庄",
        "type": "subway_station",
        "weight": 4
      },
      "geometry": {
        "type": "Point",
        "coordinates": [
          104.1154924,
          30.6892515
        ]
      }
    },
    {
      "type": "Feature",
      "properties": {
        "id": 10773561960,
        "name": "九里堤",
        "type": "subway_station",
        "weight": 4
      },
      "geometry": {
        "type": "Point",
        "coordinates": [
          104.054833,
          30.6971098
        ]
      }
    },
    {
      "type": "Feature",
      "properties": {
        "id": 10773578509,
        "name": "清江西路",
        "type": "subway_station",
        "weight": 2
      },
      "geometry": {
        "type": "Point",
        "coordinates": [
          103.9963482,
          30.6791248
        ]
      }
    },
    {
      "type": "Feature",
      "properties": {
        "id": 10773578514,
        "name": "中坝",
        "type": "subway_station",
        "weight": 4
      },
      "geometry": {
        "type": "Point",
        "coordinates": [
          103.9618332,
          30.6760004
        ]
      }
    },
    {
      "type": "Feature",
      "properties": {
        "id": 10773578518,
        "name": "蔡桥",
        "type": "subway_station",
        "weight": 4
      },
      "geometry": {
        "type": "Point",
        "coordinates": [
          103.9429114,
          30.6721636
        ]
      }
    },
    {
      "type": "Feature",
      "properties": {
        "id": 10773578523,
        "name": "非遗博览园",
        "type": "subway_station",
        "weight": 4
      },
      "geometry": {
        "type": "Point",
        "coordinates": [
          103.9204305,
          30.6767607
        ]
      }
    },
    {
      "type": "Feature",
      "properties": {
        "id": 10773578524,
        "name": "马厂坝",
        "type": "subway_station",
        "weight": 4
      },
      "geometry": {
        "type": "Point",
        "coordinates": [
          103.9116866,
          30.6801859
        ]
      }
    },
    {
      "type": "Feature",
      "properties": {
        "id": 10773578528,
        "name": "凤凰大街",
        "type": "subway_station",
        "weight": 4
      },
      "geometry": {
        "type": "Point",
        "coordinates": [
          103.8870905,
          30.6798515
        ]
      }
    },
    {
      "type": "Feature",
      "properties": {
        "id": 10773578533,
        "name": "涌泉",
        "type": "subway_station",
        "weight": 4
      },
      "geometry": {
        "type": "Point",
        "coordinates": [
          103.871376,
          30.6811232
        ]
      }
    },
    {
      "type": "Feature",
      "properties": {
        "id": 10773578538,
        "name": "光华公园",
        "type": "subway_station",
        "weight": 4
      },
      "geometry": {
        "type": "Point",
        "coordinates": [
          103.8586226,
          30.6870151
        ]
      }
    },
    {
      "type": "Feature",
      "properties": {
        "id": 10773578543,
        "name": "南熏大道",
        "type": "subway_station",
        "weight": 2
      },
      "geometry": {
        "type": "Point",
        "coordinates": [
          103.8496842,
          30.6922094
        ]
      }
    },
    {
      "type": "Feature",
      "properties": {
        "id": 10773578556,
        "name": "杨柳河",
        "type": "subway_station",
        "weight": 4
      },
      "geometry": {
        "type": "Point",
        "coordinates": [
          103.8290802,
          30.6835311
        ]
      }
    },
    {
      "type": "Feature",
      "properties": {
        "id": 10773578561,
        "name": "万盛",
        "type": "subway_station",
        "weight": 4
      },
      "geometry": {
        "type": "Point",
        "coordinates": [
          103.8168308,
          30.677956
        ]
      }
    },
    {
      "type": "Feature",
      "properties": {
        "id": 10773578566,
        "name": "李家沱",
        "type": "subway_station",
        "weight": 4
      },
      "geometry": {
        "type": "Point",
        "coordinates": [
          104.0922623,
          30.6917763
        ]
      }
    },
    {
      "type": "Feature",
      "properties": {
        "id": 10773578567,
        "name": "昭觉寺南路",
        "type": "subway_station",
        "weight": 2
      },
      "geometry": {
        "type": "Point",
        "coordinates": [
          104.0945161,
          30.7055152
        ]
      }
    },
    {
      "type": "Feature",
      "properties": {
        "id": 10773578568,
        "name": "动物园",
        "type": "subway_station",
        "weight": 4
      },
      "geometry": {
        "type": "Point",
        "coordinates": [
          104.1007793,
          30.7160252
        ]
      }
    },
    {
      "type": "Feature",
      "properties": {
        "id": 10773578569,
        "name": "熊猫大道",
        "type": "subway_station",
        "weight": 4
      },
      "geometry": {
        "type": "Point",
        "coordinates": [
          104.1056253,
          30.7280208
        ]
      }
    },
    {
      "type": "Feature",
      "properties": {
        "id": 10773578570,
        "name": "军区总医院",
        "type": "subway_station",
        "weight": 8
      },
      "geometry": {
        "type": "Point",
        "coordinates": [
          104.1116561,
          30.7469951
        ]
      }
    },
    {
      "type": "Feature",
      "properties": {
        "id": 10773578571,
        "name": "植物园",
        "type": "subway_station",
        "weight": 4
      },
      "geometry": {
        "type": "Point",
        "coordinates": [
          104.118907,
          30.7657315
        ]
      }
    },
    {
      "type": "Feature",
      "properties": {
        "id": 10773578576,
        "name": "金华寺东路",
        "type": "subway_station",
        "weight": 2
      },
      "geometry": {
        "type": "Point",
        "coordinates": [
          104.1230129,
          30.7728215
        ]
      }
    },
    {
      "type": "Feature",
      "properties": {
        "id": 10773578577,
        "name": "三河场",
        "type": "subway_station",
        "weight": 4
      },
      "geometry": {
        "type": "Point",
        "coordinates": [
          104.1366485,
          30.7870605
        ]
      }
    },
    {
      "type": "Feature",
      "properties": {
        "id": 10773578578,
        "name": "锦水河",
        "type": "subway_station",
        "weight": 4
      },
      "geometry": {
        "type": "Point",
        "coordinates": [
          104.1511586,
          30.7996209
        ]
      }
    },
    {
      "type": "Feature",
      "properties": {
        "id": 10773578579,
        "name": "团结新区",
        "type": "subway_station",
        "weight": 4
      },
      "geometry": {
        "type": "Point",
        "coordinates": [
          104.1561144,
          30.8061975
        ]
      }
    },
    {
      "type": "Feature",
      "properties": {
        "id": 10773578580,
        "name": "马超西路",
        "type": "subway_station",
        "weight": 2
      },
      "geometry": {
        "type": "Point",
        "coordinates": [
          104.1623251,
          30.8152251
        ]
      }
    },
    {
      "type": "Feature",
      "properties": {
        "id": 10773578581,
        "name": "钟楼",
        "type": "subway_station",
        "weight": 4
      },
      "geometry": {
        "type": "Point",
        "coordinates": [
          104.1724055,
          30.8230747
        ]
      }
    },
    {
      "type": "Feature",
      "properties": {
        "id": 10773578582,
        "name": "石油大学",
        "type": "subway_station",
        "weight": 4
      },
      "geometry": {
        "type": "Point",
        "coordinates": [
          104.183892,
          30.8210682
        ]
      }
    },
    {
      "type": "Feature",
      "properties": {
        "id": 10773578583,
        "name": "成都医学院",
        "type": "subway_station",
        "weight": 4
      },
      "geometry": {
        "type": "Point",
        "coordinates": [
          104.1920115,
          30.8192811
        ]
      }
    },
    {
      "type": "Feature",
      "properties": {
        "id": 11048055461,
        "name": "海昌路",
        "type": "subway_station",
        "weight": 4
      },
      "geometry": {
        "type": "Point",
        "coordinates": [
          104.0690177,
          30.4953762
        ]
      }
    },
    {
      "type": "Feature",
      "properties": {
        "id": 11379620438,
        "name": "龙桥路",
        "type": "subway_station",
        "weight": 4
      },
      "geometry": {
        "type": "Point",
        "coordinates": [
          103.9429889,
          30.608723
        ]
      }
    },
    {
      "type": "Feature",
      "properties": {
        "id": 11379620439,
        "name": "双流机场2航站楼东",
        "type": "subway_station",
        "weight": 2
      },
      "geometry": {
        "type": "Point",
        "coordinates": [
          103.9558471,
          30.5716968
        ]
      }
    },
    {
      "type": "Feature",
      "properties": {
        "id": 11379620440,
        "name": "龙港",
        "type": "subway_station",
        "weight": 4
      },
      "geometry": {
        "type": "Point",
        "coordinates": [
          103.971453,
          30.5382906
        ]
      }
    },
    {
      "type": "Feature",
      "properties": {
        "id": 11379620441,
        "name": "温家山",
        "type": "subway_station",
        "weight": 4
      },
      "geometry": {
        "type": "Point",
        "coordinates": [
          104.0068103,
          30.5014785
        ]
      }
    },
    {
      "type": "Feature",
      "properties": {
        "id": 11379620442,
        "name": "牧华路",
        "type": "subway_station",
        "weight": 4
      },
      "geometry": {
        "type": "Point",
        "coordinates": [
          104.0090393,
          30.4867389
        ]
      }
    },
    {
      "type": "Feature",
      "properties": {
        "id": 11379620443,
        "name": "正兴湾",
        "type": "subway_station",
        "weight": 4
      },
      "geometry": {
        "type": "Point",
        "coordinates": [
          104.0391904,
          30.4551304
        ]
      }
    },
    {
      "type": "Feature",
      "properties": {
        "id": 11379620444,
        "name": "红莲",
        "type": "subway_station",
        "weight": 4
      },
      "geometry": {
        "type": "Point",
        "coordinates": [
          104.0597979,
          30.435233
        ]
      }
    },
    {
      "type": "Feature",
      "properties": {
        "id": 11379620447,
        "name": "蓝家店",
        "type": "subway_station",
        "weight": 4
      },
      "geometry": {
        "type": "Point",
        "coordinates": [
          104.1066138,
          30.4201954
        ]
      }
    },
    {
      "type": "Feature",
      "properties": {
        "id": 11381436619,
        "name": "怡心湖",
        "type": "subway_station",
        "weight": 4
      },
      "geometry": {
        "type": "Point",
        "coordinates": [
          104.0233715,
          30.4735409
        ]
      }
    },
    {
      "type": "Feature",
      "properties": {
        "id": 11810702099,
        "name": "官塘",
        "type": "subway_station",
        "weight": 4
      },
      "geometry": {
        "type": "Point",
        "coordinates": [
          104.0554553,
          30.4086316
        ]
      }
    },
    {
      "type": "Feature",
      "properties": {
        "id": 11810702100,
        "name": "煎茶",
        "type": "subway_station",
        "weight": 4
      },
      "geometry": {
        "type": "Point",
        "coordinates": [
          104.0456146,
          30.3786437
        ]
      }
    },
    {
      "type": "Feature",
      "properties": {
        "id": 11810702101,
        "name": "红碑",
        "type": "subway_station",
        "weight": 4
      },
      "geometry": {
        "type": "Point",
        "coordinates": [
          104.0548263,
          30.3294409
        ]
      }
    },
    {
      "type": "Feature",
      "properties": {
        "id": 11942182951,
        "name": "福田",
        "type": "subway_station",
        "weight": 4
      },
      "geometry": {
        "type": "Point",
        "coordinates": [
          104.3848478,
          30.2807626
        ]
      }
    },
    {
      "type": "Feature",
      "properties": {
        "id": 12429438980,
        "name": "蜀鑫路",
        "type": "subway_station",
        "weight": 4
      },
      "geometry": {
        "type": "Point",
        "coordinates": [
          103.9913553,
          30.6919617
        ]
      }
    },
    {
      "type": "Feature",
      "properties": {
        "id": 12429901412,
        "name": "桂龙路",
        "type": "subway_station",
        "weight": 4
      },
      "geometry": {
        "type": "Point",
        "coordinates": [
          104.1862702,
          30.7192938
        ]
      }
    },
    {
      "type": "Feature",
      "properties": {
        "id": 12430596040,
        "name": "金沙滨河公园",
        "type": "subway_station",
        "weight": 4
      },
      "geometry": {
        "type": "Point",
        "coordinates": [
          103.9991166,
          30.6887924
        ]
      }
    },
    {
      "type": "Feature",
      "properties": {
        "id": 12430596041,
        "name": "黄忠",
        "type": "subway_station",
        "weight": 4
      },
      "geometry": {
        "type": "Point",
        "coordinates": [
          104.0054025,
          30.6899624
        ]
      }
    },
    {
      "type": "Feature",
      "properties": {
        "id": 12430606496,
        "name": "新桥",
        "type": "subway_station",
        "weight": 4
      },
      "geometry": {
        "type": "Point",
        "coordinates": [
          104.0415293,
          30.7192253
        ]
      }
    },
    {
      "type": "Feature",
      "properties": {
        "id": 12430606497,
        "name": "沙河源",
        "type": "subway_station",
        "weight": 4
      },
      "geometry": {
        "type": "Point",
        "coordinates": [
          104.0481855,
          30.725164
        ]
      }
    },
    {
      "type": "Feature",
      "properties": {
        "id": 12430613120,
        "name": "金牛公园",
        "type": "subway_station",
        "weight": 4
      },
      "geometry": {
        "type": "Point",
        "coordinates": [
          104.0206083,
          30.7068949
        ]
      }
    },
    {
      "type": "Feature",
      "properties": {
        "id": 12430613121,
        "name": "花照壁北",
        "type": "subway_station",
        "weight": 2
      },
      "geometry": {
        "type": "Point",
        "coordinates": [
          104.0277612,
          30.7106265
        ]
      }
    },
    {
      "type": "Feature",
      "properties": {
        "id": 12430642126,
        "name": "王贾桥",
        "type": "subway_station",
        "weight": 4
      },
      "geometry": {
        "type": "Point",
        "coordinates": [
          104.0663453,
          30.7194798
        ]
      }
    },
    {
      "type": "Feature",
      "properties": {
        "id": 12430642127,
        "name": "双水碾",
        "type": "subway_station",
        "weight": 4
      },
      "geometry": {
        "type": "Point",
        "coordinates": [
          104.0736586,
          30.7153506
        ]
      }
    },
    {
      "type": "Feature",
      "properties": {
        "id": 12430686956,
        "name": "赖家店",
        "type": "subway_station",
        "weight": 4
      },
      "geometry": {
        "type": "Point",
        "coordinates": [
          104.0865704,
          30.7351259
        ]
      }
    },
    {
      "type": "Feature",
      "properties": {
        "id": 12430686958,
        "name": "鲤鱼湾",
        "type": "subway_station",
        "weight": 4
      },
      "geometry": {
        "type": "Point",
        "coordinates": [
          104.096701,
          30.7549141
        ]
      }
    },
    {
      "type": "Feature",
      "properties": {
        "id": 12430686959,
        "name": "范家巷",
        "type": "subway_station",
        "weight": 4
      },
      "geometry": {
        "type": "Point",
        "coordinates": [
          104.0998552,
          30.7626965
        ]
      }
    },
    {
      "type": "Feature",
      "properties": {
        "id": 12430686960,
        "name": "三圣寺",
        "type": "subway_station",
        "weight": 4
      },
      "geometry": {
        "type": "Point",
        "coordinates": [
          104.0992679,
          30.7725651
        ]
      }
    },
    {
      "type": "Feature",
      "properties": {
        "id": 12430686961,
        "name": "石门坎",
        "type": "subway_station",
        "weight": 4
      },
      "geometry": {
        "type": "Point",
        "coordinates": [
          104.0991415,
          30.7790957
        ]
      }
    },
    {
      "type": "Feature",
      "properties": {
        "id": 12430686962,
        "name": "旃檀寺",
        "type": "subway_station",
        "weight": 4
      },
      "geometry": {
        "type": "Point",
        "coordinates": [
          104.103018,
          30.8018635
        ]
      }
    },
    {
      "type": "Feature",
      "properties": {
        "id": 12430686963,
        "name": "兴城大道",
        "type": "subway_station",
        "weight": 4
      },
      "geometry": {
        "type": "Point",
        "coordinates": [
          104.1076319,
          30.8124473
        ]
      }
    },
    {
      "type": "Feature",
      "properties": {
        "id": 12430686964,
        "name": "慈义",
        "type": "subway_station",
        "weight": 4
      },
      "geometry": {
        "type": "Point",
        "coordinates": [
          104.1123095,
          30.8198702
        ]
      }
    },
    {
      "type": "Feature",
      "properties": {
        "id": 12430686965,
        "name": "石佛",
        "type": "subway_station",
        "weight": 4
      },
      "geometry": {
        "type": "Point",
        "coordinates": [
          104.1092041,
          30.8275278
        ]
      }
    },
    {
      "type": "Feature",
      "properties": {
        "id": 12430692217,
        "name": "圣灯公园",
        "type": "subway_station",
        "weight": 4
      },
      "geometry": {
        "type": "Point",
        "coordinates": [
          104.14888,
          30.6899719
        ]
      }
    },
    {
      "type": "Feature",
      "properties": {
        "id": 12430692218,
        "name": "龙潭立交",
        "type": "subway_station",
        "weight": 4
      },
      "geometry": {
        "type": "Point",
        "coordinates": [
          104.1552108,
          30.696697
        ]
      }
    },
    {
      "type": "Feature",
      "properties": {
        "id": 12430692219,
        "name": "龙潭寺",
        "type": "subway_station",
        "weight": 4
      },
      "geometry": {
        "type": "Point",
        "coordinates": [
          104.1625087,
          30.7043565
        ]
      }
    },
    {
      "type": "Feature",
      "properties": {
        "id": 12430692220,
        "name": "同乐",
        "type": "subway_station",
        "weight": 4
      },
      "geometry": {
        "type": "Point",
        "coordinates": [
          104.1679194,
          30.7143474
        ]
      }
    },
    {
      "type": "Feature",
      "properties": {
        "id": 12430692221,
        "name": "桂林",
        "type": "subway_station",
        "weight": 4
      },
      "geometry": {
        "type": "Point",
        "coordinates": [
          104.1766882,
          30.7192561
        ]
      }
    },
    {
      "type": "Feature",
      "properties": {
        "id": 12430954776,
        "name": "韦家碾",
        "type": "subway_station",
        "weight": 4
      },
      "geometry": {
        "type": "Point",
        "coordinates": [
          104.083878,
          30.7202164
        ]
      }
    },
    {
      "type": "Feature",
      "properties": {
        "id": 12430954783,
        "name": "洞子口",
        "type": "subway_station",
        "weight": 4
      },
      "geometry": {
        "type": "Point",
        "coordinates": [
          104.0567797,
          30.7244183
        ]
      }
    },
    {
      "type": "Feature",
      "properties": {
        "id": 12433478145,
        "name": "龙港",
        "type": "subway_station",
        "weight": 4
      },
      "geometry": {
        "type": "Point",
        "coordinates": [
          103.971648,
          30.5373496
        ]
      }
    },
    {
      "type": "Feature",
      "properties": {
        "id": 12883578411,
        "name": "高洪",
        "type": "subway_station",
        "weight": 4
      },
      "geometry": {
        "type": "Point",
        "coordinates": [
          104.1924001,
          30.6925894
        ]
      }
    },
    {
      "type": "Feature",
      "properties": {
        "id": 12883578412,
        "name": "威灵",
        "type": "subway_station",
        "weight": 4
      },
      "geometry": {
        "type": "Point",
        "coordinates": [
          104.1771809,
          30.6917697
        ]
      }
    },
    {
      "type": "Feature",
      "properties": {
        "id": 12883578413,
        "name": "航天路",
        "type": "subway_station",
        "weight": 4
      },
      "geometry": {
        "type": "Point",
        "coordinates": [
          104.1630942,
          30.6910901
        ]
      }
    },
    {
      "type": "Feature",
      "properties": {
        "id": 12883578416,
        "name": "人民塘",
        "type": "subway_station",
        "weight": 4
      },
      "geometry": {
        "type": "Point",
        "coordinates": [
          104.1484293,
          30.6930155
        ]
      }
    },
    {
      "type": "Feature",
      "properties": {
        "id": 12883578424,
        "name": "踏水桥",
        "type": "subway_station",
        "weight": 4
      },
      "geometry": {
        "type": "Point",
        "coordinates": [
          104.1057191,
          30.6775759
        ]
      }
    },
    {
      "type": "Feature",
      "properties": {
        "id": 12883578437,
        "name": "红星桥",
        "type": "subway_station",
        "weight": 4
      },
      "geometry": {
        "type": "Point",
        "coordinates": [
          104.0881848,
          30.676276
        ]
      }
    },
    {
      "type": "Feature",
      "properties": {
        "id": 12883578440,
        "name": "城隍庙",
        "type": "subway_station",
        "weight": 4
      },
      "geometry": {
        "type": "Point",
        "coordinates": [
          104.0773762,
          30.6816687
        ]
      }
    },
    {
      "type": "Feature",
      "properties": {
        "id": 12883578449,
        "name": "西大街",
        "type": "subway_station",
        "weight": 2
      },
      "geometry": {
        "type": "Point",
        "coordinates": [
          104.0563946,
          30.6766387
        ]
      }
    },
    {
      "type": "Feature",
      "properties": {
        "id": 12883578450,
        "name": "人民公园",
        "type": "subway_station",
        "weight": 4
      },
      "geometry": {
        "type": "Point",
        "coordinates": [
          104.0531263,
          30.6610569
        ]
      }
    },